<?xml version="1.0" encoding="UTF-8"?>
<puntos>
	<marker name="FUNDICIONES DE METALES LIMA LTDA." address="" type="1627-312" lat="10.807258" lng="-74.764053"/>
	<marker name="ADRIANA ORTIZ SAEZ-RECICLAL" address="Reciclaje de materiales no ferrosos" type="0809-258" lat="10.830925" lng="-74.781747"/>
	<marker name="METCARIBE S.A" address="Recuperacion de metales no ferrosos" type="0809-266" lat="10.832036" lng="-74.784811"/>
	<marker name="METAL CHARBEL" address="Fundidoras" type="0503-023" lat="10.832136" lng="-74.919572"/>
	<marker name="PUERTO PIMSA S.A. " address="TerraplÚn puerto sobre el rio magdalena" type="0809-040" lat="10.834842" lng="-74.743433"/>
	<marker name="TALLER DE FUNDICIONES BOYACA" address="Fundicion de plomo. aluminio y bronce." type="0803-026" lat="10.837178" lng="-74.771783"/>
	<marker name="ECOQUIMIA S.A" address="Tratamiento y disposicion de residuos solidos y productos especiales" type="0109-020" lat="10.844442" lng="-74.891653"/>
	<marker name="EXCEDENTES INDUSTRIALES DELáCARIBE" address="Reciclaje. Tratamiento de desechos industriales." type="0809-238" lat="10.854764" lng="-74.781747"/>
	<marker name="CALCIOS Y FOSFOROS  (Finca Villa Maria)" address="Calcinadora de huesos" type="0811-372" lat="10.855500" lng="-74.799825"/>
	<marker name="RECUPERADORA HERMANOS HERTO" address="" type="0809-269" lat="10.855500" lng="-74.792875"/>
	<marker name="FUNDIDORA SAN NICOLAS" address="Fundicion de plomo" type="0811-090" lat="10.858806" lng="-74.850111"/>
	<marker name="SOCRATES Y WILLIAM CARTAGENA" address="FUNDIDORA DE CEBO" type="2011-137" lat="10.883417" lng="-74.804694"/>
	<marker name="DISTRIBUIDORA LA GITANA LTDA." address="REHABILITACIËN DE SUELOS" type="2027-107" lat="10.885906" lng="-74.769186"/>
	<marker name="ALOE DE VERA" address="PLANTA PROCESADORA DE PENCA DE SABILA" type="2027-394" lat="10.886644" lng="-74.800250"/>
	<marker name="PROMIGAS" address="Operacion y mantenimiento de la red de gasoproductos de PROMIGAS." type="0801-220" lat="10.889758" lng="-74.820272"/>
	<marker name="PLANTA ENERGIZAR S.A" address="ESTACION DE SERVICIO DE AVIACION" type="2011-338" lat="10.894514" lng="-74.771289"/>
	<marker name="AVIANCA" address="TRANSPORTE A+REO NACIONAL E INTERNACIONAL DE PASAJEROS" type="2027-143" lat="10.894714" lng="-74.771253"/>
	<marker name="SATEC" address="MANTENIMIENTO DE AVIONES" type="2011-265" lat="10.894714" lng="-74.771253"/>
	<marker name="CONSORCIO EDIFICAR" address="CONSTRUCCION DEL CENTRO LOGISTICO Y ADMINISTRATIVO SERVIENTREGA" type="2002-085" lat="10.895778" lng="-74.774639"/>
	<marker name="ARNEG ANDINA" address="ENSAMBLE . COMERCIALIZACION Y DISTRIBUCION DE EQUIPOS DE REFRIGERACION INDUSTRIAL" type="2027-395" lat="10.897061" lng="-74.768792"/>
	<marker name="PORTATILES MAKEN" address="ALQUILER Y VENTA DE BAÐOS. CASAS Y OFICINAS PORTATILES." type="2002-073" lat="10.897444" lng="-74.767622"/>
	<marker name="FUNDIDORA MARI0 NARANJO PEREZ" address="" type="2003-011" lat="10.898631" lng="-74.764289"/>
	<marker name="INSERVAR- INVERSIONES Y" address="ESTACION DE SERVICIO QUE INCLUYE DENTRO DE SU OBJETO LA PRESTACION DEL SERVICIO DE LAVADO. MANTENIMIENTO PREVENTIVO. REPARACION. LAMINACION. LATONERIA Y PINTURA DE VEHICULOS AUTOMOTORES DE COOLITORAL LTDA." type="2001-057" lat="10.899225" lng="-74.784506"/>
	<marker name="COL CANECAS DEL NORTE  LTDA." address="Reacondicionamiento tÚcnica de envases medianos industriales" type="2002-029" lat="10.905925" lng="-74.768242"/>
	<marker name="ALMAGRARIO  S.A." address="BODEGAJE DE PRODUCTOS Y MERCANC-AS" type="2001-029" lat="10.908097" lng="-74.771433"/>
	<marker name="GECOLSA  S.A." address="VENTA. MANTENIMIENTO  Y REPARACION DE MAQUINARIA PESADA PARA MINERIA Y AGRICULTURA." type="2002-013" lat="10.918572" lng="-74.773819"/>
	<marker name="ARROCERA OLIMPICA-granos y cereales" address="PROCESAMIENTO Y COMERCIALIZACIËN DE ARROZ Y SUS SUBPRODUCTOS" type="2027-010" lat="10.918950" lng="-74.774164"/>
	<marker name="ALPOPULAR S.A." address="DEPËSITO Y CUSTODIA. EL MANEJO Y DISTRIBUCIËN. COMPRA Y VENTA DE CUALQUIER TIPO DE MERCANC-A Y PRODUCTOS PRECEDENCIA NACIONAL Y EXTRANJERA." type="2027-366" lat="10.921975" lng="-74.777017"/>
	<marker name="VIAJES LOBO TOURS (aceites usados)" address="Construccion y operacion de un centro de acopio para el almacenamiento temporal de aceites lubricantes usados y sus actividades complementarios de recoleccion. transporte y manejo." type="2009-290" lat="10.922222" lng="-74.781667"/>
	<marker name="COMESTIBLES LALO LTDA.( BIMBO)" address="ELABORACIËN DE PRODUCTOS DE PANADER-A Y PASTELER-A" type="2003-017 2002-040" lat="10.926067" lng="-74.778111"/>
	<marker name="CARNES DE LA CASA" address="" type="2002-092" lat="10.926636" lng="-74.762881"/>
	<marker name="HARINERA NACIONAL DEL ATLANTICO" address="" type="0504-112 0503-055" lat="10.932419" lng="-74.852042"/>
	<marker name="DOW  AGROSCIENCES" address="IMPORTACION DE INGREDIENTES ACTIVO GRADO T+CNICO 2.4-D AMINA Y SUS PRODUCTOS FORMULADOS DMA 4SL. DMA 600SL Y FORMULA 40" type="2003-007 2002-024" lat="10.940819" lng="-74.765206"/>
	<marker name="REUSAR LTDA." address="REACONDICIONAMIENTO DE CANECAS METALICAS" type="2027-095" lat="10.943103" lng="-74.770206"/>
	<marker name="PARQUE INDUSTRIAL TUBARA" address="PARQUE INDUSTRIAL" type="2227-478" lat="10.945861" lng="-74.920317"/>
	<marker name="RECIMAR  LTDA." address="RECUPERACIËN DE ACEITES Y RESIDUOS INORG-NICOS PREVENIENTES DE BUQUES." type="2227-047" lat="10.971389" lng="-75.037500"/>
	<marker name="SULIQUIDO SA" address="TRANSPORTE DE GRANALES LIQUIDOS" type="2110-195" lat="10.993278" lng="-74.780206"/>
	<marker name="JARDINES DE LA ETERNIDAD" address="Prestacion de servicios exequiales. en parque cementerio funeraria y horno crematorio." type="1401-059  1426-079  1403-013  1402-081" lat="11.014483" lng="-74.903267"/>
	<marker name="PARQUE CEMENTERIO LO OLIVOS" address="Parque cementerio y servicios f·nebres" type="1402-077  1403-039  1401-160" lat="11.015764" lng="-74.868439"/>
	<marker name="FUNERARIA INVERSIONES Y PLANES DE LA PAZ" address="Prestacion de servicios exequibles. funerarios. crematorios y/o inhumacion." type="1427-034  1401-164  1403-040" lat="11.016322" lng="-74.870047"/>

</puntos>
